{
  "metadata": {
    "source": "Statistics Canada Census 2021",
    "license": "Open Government License - Canada",
    "total_cities": 5142,
    "last_updated": "2024-01-01"
  },
  "provinces": {
    "ON": "Ontario",
    "QC": "Quebec",
    "BC": "British Columbia",
    "AB": "Alberta",
    "MB": "Manitoba",
    "SK": "Saskatchewan",
    "NS": "Nova Scotia",
    "NB": "New Brunswick",
    "NL": "Newfoundland and Labrador",
    "PE": "Prince Edward Island",
    "NT": "Northwest Territories",
    "YT": "Yukon",
    "NU": "Nunavut"
  },
  "cities": [
    {"city": "Toronto", "province": "ON", "pop": 2794356, "lat": 43.6532, "lng": -79.3832},
    {"city": "Montreal", "province": "QC", "pop": 1762949, "lat": 45.5017, "lng": -73.5673},
    {"city": "Calgary", "province": "AB", "pop": 1306784, "lat": 51.0447, "lng": -114.0719},
    {"city": "Ottawa", "province": "ON", "pop": 1017449, "lat": 45.4215, "lng": -75.6972},
    {"city": "Edmonton", "province": "AB", "pop": 1010899, "lat": 53.5461, "lng": -113.4938},
    {"city": "Mississauga", "province": "ON", "pop": 717961, "lat": 43.5890, "lng": -79.6441},
    {"city": "Winnipeg", "province": "MB", "pop": 749607, "lat": 49.8951, "lng": -97.1384},
    {"city": "Vancouver", "province": "BC", "pop": 662248, "lat": 49.2827, "lng": -123.1207},
    {"city": "Brampton", "province": "ON", "pop": 656480, "lat": 43.7315, "lng": -79.7624},
    {"city": "Hamilton", "province": "ON", "pop": 569353, "lat": 43.2557, "lng": -79.8711},
    {"city": "Quebec City", "province": "QC", "pop": 549459, "lat": 46.8139, "lng": -71.2080},
    {"city": "Surrey", "province": "BC", "pop": 568322, "lat": 49.1913, "lng": -122.8490},
    {"city": "Laval", "province": "QC", "pop": 438366, "lat": 45.6066, "lng": -73.7124},
    {"city": "Halifax", "province": "NS", "pop": 439819, "lat": 44.6488, "lng": -63.5752},
    {"city": "London", "province": "ON", "pop": 422324, "lat": 42.9849, "lng": -81.2453},
    {"city": "Markham", "province": "ON", "pop": 338503, "lat": 43.8561, "lng": -79.3370},
    {"city": "Vaughan", "province": "ON", "pop": 323103, "lat": 43.8361, "lng": -79.4983},
    {"city": "Gatineau", "province": "QC", "pop": 291041, "lat": 45.4765, "lng": -75.7013},
    {"city": "Longueuil", "province": "QC", "pop": 255154, "lat": 45.5312, "lng": -73.5185},
    {"city": "Burnaby", "province": "BC", "pop": 249125, "lat": 49.2488, "lng": -122.9805},
    {"city": "Saskatoon", "province": "SK", "pop": 266141, "lat": 52.1332, "lng": -106.6700},
    {"city": "Kitchener", "province": "ON", "pop": 256885, "lat": 43.4516, "lng": -80.4925},
    {"city": "Windsor", "province": "ON", "pop": 229660, "lat": 42.3149, "lng": -83.0364},
    {"city": "Regina", "province": "SK", "pop": 226404, "lat": 50.4452, "lng": -104.6189},
    {"city": "Richmond", "province": "BC", "pop": 209937, "lat": 49.1666, "lng": -123.1336},
    {"city": "Richmond Hill", "province": "ON", "pop": 202022, "lat": 43.8828, "lng": -79.4403},
    {"city": "Oakville", "province": "ON", "pop": 213759, "lat": 43.4675, "lng": -79.6877},
    {"city": "Burlington", "province": "ON", "pop": 186948, "lat": 43.3255, "lng": -79.7990},
    {"city": "Sherbrooke", "province": "QC", "pop": 172950, "lat": 45.4009, "lng": -71.8993},
    {"city": "Oshawa", "province": "ON", "pop": 175383, "lat": 43.8971, "lng": -78.8658},
    {"city": "Saguenay", "province": "QC", "pop": 157790, "lat": 48.4279, "lng": -71.0686},
    {"city": "Levis", "province": "QC", "pop": 149683, "lat": 46.8032, "lng": -71.1780},
    {"city": "Barrie", "province": "ON", "pop": 147829, "lat": 44.3894, "lng": -79.6903},
    {"city": "Abbotsford", "province": "BC", "pop": 153524, "lat": 49.0504, "lng": -122.3045},
    {"city": "St. Catharines", "province": "ON", "pop": 136803, "lat": 43.1594, "lng": -79.2469},
    {"city": "Trois-Rivieres", "province": "QC", "pop": 140420, "lat": 46.3432, "lng": -72.5477},
    {"city": "Cambridge", "province": "ON", "pop": 138479, "lat": 43.3616, "lng": -80.3144},
    {"city": "Coquitlam", "province": "BC", "pop": 148625, "lat": 49.2838, "lng": -122.7932},
    {"city": "Kingston", "province": "ON", "pop": 132485, "lat": 44.2312, "lng": -76.4860},
    {"city": "Whitby", "province": "ON", "pop": 138501, "lat": 43.8975, "lng": -78.9429},
    {"city": "Guelph", "province": "ON", "pop": 143740, "lat": 43.5448, "lng": -80.2482},
    {"city": "Kelowna", "province": "BC", "pop": 144576, "lat": 49.8880, "lng": -119.4960},
    {"city": "Saanich", "province": "BC", "pop": 117735, "lat": 48.4840, "lng": -123.3812},
    {"city": "Ajax", "province": "ON", "pop": 126666, "lat": 43.8509, "lng": -79.0204},
    {"city": "Terrebonne", "province": "QC", "pop": 121214, "lat": 45.7020, "lng": -73.6473},
    {"city": "Thunder Bay", "province": "ON", "pop": 110172, "lat": 48.3809, "lng": -89.2477},
    {"city": "St. John's", "province": "NL", "pop": 110525, "lat": 47.5615, "lng": -52.7126},
    {"city": "Langley", "province": "BC", "pop": 132603, "lat": 49.1044, "lng": -122.6609},
    {"city": "Delta", "province": "BC", "pop": 108455, "lat": 49.0847, "lng": -123.0586},
    {"city": "Waterloo", "province": "ON", "pop": 121436, "lat": 43.4643, "lng": -80.5204},
    {"city": "Chatham-Kent", "province": "ON", "pop": 104316, "lat": 42.4024, "lng": -82.1910},
    {"city": "Brantford", "province": "ON", "pop": 104688, "lat": 43.1394, "lng": -80.2644},
    {"city": "Red Deer", "province": "AB", "pop": 100844, "lat": 52.2681, "lng": -113.8112},
    {"city": "Lethbridge", "province": "AB", "pop": 101482, "lat": 49.6956, "lng": -112.8451},
    {"city": "Nanaimo", "province": "BC", "pop": 99863, "lat": 49.1659, "lng": -123.9401},
    {"city": "Kamloops", "province": "BC", "pop": 97902, "lat": 50.6745, "lng": -120.3273},
    {"city": "Saint-Jean-sur-Richelieu", "province": "QC", "pop": 98036, "lat": 45.3073, "lng": -73.2526},
    {"city": "Victoria", "province": "BC", "pop": 91867, "lat": 48.4284, "lng": -123.3656},
    {"city": "Chilliwack", "province": "BC", "pop": 93203, "lat": 49.1579, "lng": -121.9514},
    {"city": "Maple Ridge", "province": "BC", "pop": 90990, "lat": 49.2193, "lng": -122.5984},
    {"city": "Sudbury", "province": "ON", "pop": 166004, "lat": 46.4917, "lng": -80.9930},
    {"city": "Moncton", "province": "NB", "pop": 79470, "lat": 46.0878, "lng": -64.7782},
    {"city": "Brossard", "province": "QC", "pop": 89788, "lat": 45.4653, "lng": -73.4573},
    {"city": "Newmarket", "province": "ON", "pop": 87942, "lat": 44.0592, "lng": -79.4613},
    {"city": "Saint John", "province": "NB", "pop": 69895, "lat": 45.2733, "lng": -66.0633},
    {"city": "Peterborough", "province": "ON", "pop": 83651, "lat": 44.3091, "lng": -78.3197},
    {"city": "Kawartha Lakes", "province": "ON", "pop": 79247, "lat": 44.3500, "lng": -78.7500},
    {"city": "Niagara Falls", "province": "ON", "pop": 94415, "lat": 43.0896, "lng": -79.0849},
    {"city": "Sault Ste. Marie", "province": "ON", "pop": 72051, "lat": 46.5219, "lng": -84.3461},
    {"city": "Sarnia", "province": "ON", "pop": 72047, "lat": 42.9994, "lng": -82.3089},
    {"city": "North Vancouver", "province": "BC", "pop": 58120, "lat": 49.3165, "lng": -123.0688},
    {"city": "Belleville", "province": "ON", "pop": 55071, "lat": 44.1628, "lng": -77.3832},
    {"city": "Fredericton", "province": "NB", "pop": 63116, "lat": 45.9636, "lng": -66.6431},
    {"city": "Prince George", "province": "BC", "pop": 76708, "lat": 53.9171, "lng": -122.7497},
    {"city": "New Westminster", "province": "BC", "pop": 78916, "lat": 49.2057, "lng": -122.9110},
    {"city": "Norfolk County", "province": "ON", "pop": 67490, "lat": 42.8500, "lng": -80.3833},
    {"city": "Charlottetown", "province": "PE", "pop": 38809, "lat": 46.2382, "lng": -63.1311},
    {"city": "Medicine Hat", "province": "AB", "pop": 63260, "lat": 50.0405, "lng": -110.6764},
    {"city": "Drummondville", "province": "QC", "pop": 79379, "lat": 45.8802, "lng": -72.4841},
    {"city": "Granby", "province": "QC", "pop": 68352, "lat": 45.4000, "lng": -72.7333},
    {"city": "St. Albert", "province": "AB", "pop": 68232, "lat": 53.6303, "lng": -113.6258},
    {"city": "Saint-Hyacinthe", "province": "QC", "pop": 59614, "lat": 45.6307, "lng": -72.9571},
    {"city": "Port Coquitlam", "province": "BC", "pop": 61498, "lat": 49.2625, "lng": -122.7811},
    {"city": "Blainville", "province": "QC", "pop": 61968, "lat": 45.6695, "lng": -73.8818},
    {"city": "Aurora", "province": "ON", "pop": 62057, "lat": 44.0065, "lng": -79.4504},
    {"city": "Repentigny", "province": "QC", "pop": 86181, "lat": 45.7422, "lng": -73.4500},
    {"city": "Welland", "province": "ON", "pop": 55750, "lat": 42.9923, "lng": -79.2488},
    {"city": "North Bay", "province": "ON", "pop": 51553, "lat": 46.3091, "lng": -79.4608},
    {"city": "Whitehorse", "province": "YT", "pop": 28201, "lat": 60.7212, "lng": -135.0568},
    {"city": "Victoriaville", "province": "QC", "pop": 46354, "lat": 46.0500, "lng": -71.9667},
    {"city": "Shawinigan", "province": "QC", "pop": 49349, "lat": 46.5667, "lng": -72.7500},
    {"city": "Spruce Grove", "province": "AB", "pop": 37645, "lat": 53.5450, "lng": -113.9000},
    {"city": "Vernon", "province": "BC", "pop": 44600, "lat": 50.2671, "lng": -119.2720},
    {"city": "Grande Prairie", "province": "AB", "pop": 69088, "lat": 55.1707, "lng": -118.7886},
    {"city": "Airdrie", "province": "AB", "pop": 73580, "lat": 51.2917, "lng": -114.0144},
    {"city": "Halton Hills", "province": "ON", "pop": 64135, "lat": 43.6310, "lng": -79.9500},
    {"city": "Saint-Jerome", "province": "QC", "pop": 79621, "lat": 45.7804, "lng": -74.0036},
    {"city": "Courtenay", "province": "BC", "pop": 28420, "lat": 49.6839, "lng": -124.9903},
    {"city": "Timmins", "province": "ON", "pop": 41145, "lat": 48.4758, "lng": -81.3303},
    {"city": "Quinte West", "province": "ON", "pop": 46560, "lat": 44.1833, "lng": -77.5667},
    {"city": "Stratford", "province": "ON", "pop": 33232, "lat": 43.3700, "lng": -80.9822},
    {"city": "Georgina", "province": "ON", "pop": 47642, "lat": 44.2972, "lng": -79.4313},
    {"city": "Bradford West Gwillimbury", "province": "ON", "pop": 42880, "lat": 44.1146, "lng": -79.6329},
    {"city": "Orangeville", "province": "ON", "pop": 30734, "lat": 43.9197, "lng": -80.0943},
    {"city": "Innisfil", "province": "ON", "pop": 43326, "lat": 44.3000, "lng": -79.5833},
    {"city": "Stouffville", "province": "ON", "pop": 50175, "lat": 43.9667, "lng": -79.2500},
    {"city": "Woodstock", "province": "ON", "pop": 46705, "lat": 43.1306, "lng": -80.7467},
    {"city": "Orillia", "province": "ON", "pop": 33411, "lat": 44.6082, "lng": -79.4197},
    {"city": "Milton", "province": "ON", "pop": 132979, "lat": 43.5183, "lng": -79.8774},
    {"city": "Fort McMurray", "province": "AB", "pop": 68038, "lat": 56.7267, "lng": -111.3790},
    {"city": "Leduc", "province": "AB", "pop": 34047, "lat": 53.2646, "lng": -113.5498},
    {"city": "Campbell River", "province": "BC", "pop": 35138, "lat": 50.0244, "lng": -125.2475},
    {"city": "Penticton", "province": "BC", "pop": 36094, "lat": 49.4911, "lng": -119.5886},
    {"city": "Moose Jaw", "province": "SK", "pop": 34421, "lat": 50.3928, "lng": -105.5519},
    {"city": "Prince Albert", "province": "SK", "pop": 37756, "lat": 53.2033, "lng": -105.7531},
    {"city": "Bathurst", "province": "NB", "pop": 11897, "lat": 47.6197, "lng": -65.6594},
    {"city": "Miramichi", "province": "NB", "pop": 17537, "lat": 47.0294, "lng": -65.4667},
    {"city": "Edmundston", "province": "NB", "pop": 16580, "lat": 47.3667, "lng": -68.3333},
    {"city": "Corner Brook", "province": "NL", "pop": 19806, "lat": 48.9500, "lng": -57.9500},
    {"city": "Conception Bay South", "province": "NL", "pop": 27168, "lat": 47.5167, "lng": -52.9833},
    {"city": "Mount Pearl", "province": "NL", "pop": 22477, "lat": 47.5189, "lng": -52.8058},
    {"city": "Paradise", "province": "NL", "pop": 23185, "lat": 47.5333, "lng": -52.8667},
    {"city": "Summerside", "province": "PE", "pop": 15654, "lat": 46.3936, "lng": -63.7903},
    {"city": "Stratford", "province": "PE", "pop": 11564, "lat": 46.2167, "lng": -63.0833},
    {"city": "Cornwall", "province": "PE", "pop": 6574, "lat": 46.2333, "lng": -63.2167},
    {"city": "Sydney", "province": "NS", "pop": 29904, "lat": 46.1368, "lng": -60.1942},
    {"city": "Truro", "province": "NS", "pop": 13042, "lat": 45.3647, "lng": -63.2800},
    {"city": "New Glasgow", "province": "NS", "pop": 9075, "lat": 45.5926, "lng": -62.6455},
    {"city": "Bridgewater", "province": "NS", "pop": 8790, "lat": 44.3772, "lng": -64.5179},
    {"city": "Kentville", "province": "NS", "pop": 6630, "lat": 45.0764, "lng": -64.4950},
    {"city": "Yarmouth", "province": "NS", "pop": 7089, "lat": 43.8361, "lng": -66.1174},
    {"city": "Yellowknife", "province": "NT", "pop": 21972, "lat": 62.4540, "lng": -114.3718},
    {"city": "Iqaluit", "province": "NU", "pop": 7740, "lat": 63.7467, "lng": -68.5170},
    {"city": "Dawson City", "province": "YT", "pop": 1577, "lat": 64.0600, "lng": -139.4320},
    {"city": "Watson Lake", "province": "YT", "pop": 790, "lat": 60.0633, "lng": -128.7108},
    {"city": "Inuvik", "province": "NT", "pop": 3137, "lat": 68.3607, "lng": -133.7230},
    {"city": "Hay River", "province": "NT", "pop": 3734, "lat": 60.8156, "lng": -115.7314},
    {"city": "Fort Smith", "province": "NT", "pop": 2248, "lat": 60.0000, "lng": -111.8833},
    {"city": "Rankin Inlet", "province": "NU", "pop": 2975, "lat": 62.8092, "lng": -92.0856},
    {"city": "Arviat", "province": "NU", "pop": 2864, "lat": 61.1078, "lng": -94.0628},
    {"city": "Baker Lake", "province": "NU", "pop": 2061, "lat": 64.3167, "lng": -96.0333},
    {"city": "Cambridge Bay", "province": "NU", "pop": 1766, "lat": 69.1169, "lng": -105.0597},
    {"city": "Gjoa Haven", "province": "NU", "pop": 1324, "lat": 68.6357, "lng": -95.8781},
    {"city": "Pond Inlet", "province": "NU", "pop": 1617, "lat": 72.6997, "lng": -77.9539},
    {"city": "Lloydminster", "province": "AB", "pop": 31483, "lat": 53.2807, "lng": -110.0050},
    {"city": "Fort Saskatchewan", "province": "AB", "pop": 26795, "lat": 53.7128, "lng": -113.2133},
    {"city": "Camrose", "province": "AB", "pop": 18742, "lat": 53.0167, "lng": -112.8333},
    {"city": "Wetaskiwin", "province": "AB", "pop": 12655, "lat": 52.9694, "lng": -113.3767},
    {"city": "Cold Lake", "province": "AB", "pop": 15156, "lat": 54.4642, "lng": -110.1825},
    {"city": "Brooks", "province": "AB", "pop": 14451, "lat": 50.5642, "lng": -111.8989},
    {"city": "Okotoks", "province": "AB", "pop": 31473, "lat": 50.7253, "lng": -113.9750},
    {"city": "Cochrane", "province": "AB", "pop": 32199, "lat": 51.1892, "lng": -114.4672},
    {"city": "Chestermere", "province": "AB", "pop": 22163, "lat": 51.0500, "lng": -113.8200},
    {"city": "Beaumont", "province": "AB", "pop": 21106, "lat": 53.3572, "lng": -113.4147},
    {"city": "High River", "province": "AB", "pop": 14957, "lat": 50.5817, "lng": -113.8683},
    {"city": "Canmore", "province": "AB", "pop": 14936, "lat": 51.0892, "lng": -115.3586},
    {"city": "Stony Plain", "province": "AB", "pop": 17189, "lat": 53.5253, "lng": -114.0100},
    {"city": "Sylvan Lake", "province": "AB", "pop": 15608, "lat": 52.3086, "lng": -114.0933},
    {"city": "Lacombe", "province": "AB", "pop": 14100, "lat": 52.4683, "lng": -113.7367},
    {"city": "Hinton", "province": "AB", "pop": 9882, "lat": 53.4114, "lng": -117.5681},
    {"city": "Whitecourt", "province": "AB", "pop": 10574, "lat": 54.1428, "lng": -115.6831},
    {"city": "Banff", "province": "AB", "pop": 8754, "lat": 51.1784, "lng": -115.5708},
    {"city": "Jasper", "province": "AB", "pop": 5236, "lat": 52.8737, "lng": -118.0814},
    {"city": "Taber", "province": "AB", "pop": 8428, "lat": 49.7847, "lng": -112.1508},
    {"city": "Crowsnest Pass", "province": "AB", "pop": 5589, "lat": 49.5833, "lng": -114.4167},
    {"city": "Drumheller", "province": "AB", "pop": 7982, "lat": 51.4636, "lng": -112.7197},
    {"city": "Ponoka", "province": "AB", "pop": 7229, "lat": 52.6772, "lng": -113.5781},
    {"city": "Innisfail", "province": "AB", "pop": 7876, "lat": 52.0281, "lng": -113.9508},
    {"city": "Olds", "province": "AB", "pop": 9184, "lat": 51.7928, "lng": -114.1067},
    {"city": "Didsbury", "province": "AB", "pop": 5268, "lat": 51.6656, "lng": -114.1308},
    {"city": "Strathmore", "province": "AB", "pop": 13756, "lat": 51.0378, "lng": -113.4003},
    {"city": "Bonnyville", "province": "AB", "pop": 6921, "lat": 54.2667, "lng": -110.7333},
    {"city": "Edson", "province": "AB", "pop": 8414, "lat": 53.5817, "lng": -116.4344},
    {"city": "Drayton Valley", "province": "AB", "pop": 7049, "lat": 53.2211, "lng": -114.9797},
    {"city": "Rocky Mountain House", "province": "AB", "pop": 6635, "lat": 52.3753, "lng": -114.9219},
    {"city": "Morinville", "province": "AB", "pop": 10270, "lat": 53.8022, "lng": -113.6483},
    {"city": "Devon", "province": "AB", "pop": 6578, "lat": 53.3631, "lng": -113.7300},
    {"city": "Peace River", "province": "AB", "pop": 6842, "lat": 56.2369, "lng": -117.2917},
    {"city": "Slave Lake", "province": "AB", "pop": 6782, "lat": 55.2847, "lng": -114.7772},
    {"city": "Athabasca", "province": "AB", "pop": 2965, "lat": 54.7211, "lng": -113.2856},
    {"city": "Vegreville", "province": "AB", "pop": 5708, "lat": 53.4900, "lng": -112.0517},
    {"city": "High Level", "province": "AB", "pop": 3159, "lat": 58.5167, "lng": -117.1333},
    {"city": "Wainwright", "province": "AB", "pop": 6270, "lat": 52.8333, "lng": -110.8500},
    {"city": "Vermilion", "province": "AB", "pop": 4049, "lat": 53.3542, "lng": -110.8531},
    {"city": "Pincher Creek", "province": "AB", "pop": 3642, "lat": 49.4856, "lng": -113.9508},
    {"city": "Claresholm", "province": "AB", "pop": 3780, "lat": 50.0256, "lng": -113.5869},
    {"city": "Stettler", "province": "AB", "pop": 5952, "lat": 52.3233, "lng": -112.7125},
    {"city": "Three Hills", "province": "AB", "pop": 3212, "lat": 51.7036, "lng": -113.2572},
    {"city": "Westlock", "province": "AB", "pop": 5126, "lat": 54.1519, "lng": -113.8672},
    {"city": "Barrhead", "province": "AB", "pop": 4432, "lat": 54.1306, "lng": -114.4022},
    {"city": "St. Paul", "province": "AB", "pop": 5827, "lat": 53.9931, "lng": -111.3014},
    {"city": "Estevan", "province": "SK", "pop": 11054, "lat": 49.1392, "lng": -102.9861},
    {"city": "Swift Current", "province": "SK", "pop": 17535, "lat": 50.2881, "lng": -107.7939},
    {"city": "North Battleford", "province": "SK", "pop": 14315, "lat": 52.7575, "lng": -108.2861},
    {"city": "Yorkton", "province": "SK", "pop": 16280, "lat": 51.2139, "lng": -102.4628},
    {"city": "Weyburn", "province": "SK", "pop": 11020, "lat": 49.6608, "lng": -103.8528},
    {"city": "Melfort", "province": "SK", "pop": 5992, "lat": 52.8564, "lng": -104.6100},
    {"city": "Humboldt", "province": "SK", "pop": 5869, "lat": 52.2011, "lng": -105.1225},
    {"city": "Lloydminster", "province": "SK", "pop": 11765, "lat": 53.2807, "lng": -110.0050},
    {"city": "Melville", "province": "SK", "pop": 4562, "lat": 50.9308, "lng": -102.8078},
    {"city": "Kindersley", "province": "SK", "pop": 4678, "lat": 51.4667, "lng": -109.1667},
    {"city": "Tisdale", "province": "SK", "pop": 3180, "lat": 52.8486, "lng": -104.0500},
    {"city": "Nipawin", "province": "SK", "pop": 4265, "lat": 53.3594, "lng": -104.0086},
    {"city": "Meadow Lake", "province": "SK", "pop": 5344, "lat": 54.1244, "lng": -108.4353},
    {"city": "Martensville", "province": "SK", "pop": 11183, "lat": 52.2917, "lng": -106.6667},
    {"city": "Warman", "province": "SK", "pop": 12160, "lat": 52.3217, "lng": -106.5844},
    {"city": "Brandon", "province": "MB", "pop": 51313, "lat": 49.8439, "lng": -99.9500},
    {"city": "Steinbach", "province": "MB", "pop": 17806, "lat": 49.5258, "lng": -96.6839},
    {"city": "Thompson", "province": "MB", "pop": 13678, "lat": 55.7433, "lng": -97.8553},
    {"city": "Portage la Prairie", "province": "MB", "pop": 13304, "lat": 49.9728, "lng": -98.2919},
    {"city": "Selkirk", "province": "MB", "pop": 10504, "lat": 50.1436, "lng": -96.8839},
    {"city": "Winkler", "province": "MB", "pop": 14068, "lat": 49.1817, "lng": -97.9400},
    {"city": "Morden", "province": "MB", "pop": 9303, "lat": 49.1919, "lng": -98.1011},
    {"city": "Dauphin", "province": "MB", "pop": 8457, "lat": 51.1494, "lng": -100.0500},
    {"city": "The Pas", "province": "MB", "pop": 5369, "lat": 53.8250, "lng": -101.2542},
    {"city": "Flin Flon", "province": "MB", "pop": 5185, "lat": 54.7667, "lng": -101.8833},
    {"city": "Stonewall", "province": "MB", "pop": 5053, "lat": 50.1347, "lng": -97.3269},
    {"city": "Gimli", "province": "MB", "pop": 6181, "lat": 50.6336, "lng": -96.9889},
    {"city": "Beausejour", "province": "MB", "pop": 3232, "lat": 50.0622, "lng": -96.5156},
    {"city": "Niverville", "province": "MB", "pop": 5756, "lat": 49.6050, "lng": -97.0392},
    {"city": "Neepawa", "province": "MB", "pop": 4653, "lat": 50.2289, "lng": -99.4664},
    {"city": "Virden", "province": "MB", "pop": 3114, "lat": 49.8508, "lng": -100.9319},
    {"city": "Carman", "province": "MB", "pop": 3230, "lat": 49.4992, "lng": -98.0011},
    {"city": "Altona", "province": "MB", "pop": 4400, "lat": 49.1047, "lng": -97.5594},
    {"city": "Mission", "province": "BC", "pop": 41519, "lat": 49.1336, "lng": -122.3114},
    {"city": "Langford", "province": "BC", "pop": 46584, "lat": 48.4475, "lng": -123.5047},
    {"city": "West Kelowna", "province": "BC", "pop": 36078, "lat": 49.8628, "lng": -119.5833},
    {"city": "Port Moody", "province": "BC", "pop": 33535, "lat": 49.2831, "lng": -122.8317},
    {"city": "North Cowichan", "province": "BC", "pop": 30919, "lat": 48.8333, "lng": -123.7500},
    {"city": "White Rock", "province": "BC", "pop": 21939, "lat": 49.0253, "lng": -122.8028},
    {"city": "Squamish", "province": "BC", "pop": 23819, "lat": 49.7017, "lng": -123.1589},
    {"city": "Salmon Arm", "province": "BC", "pop": 19433, "lat": 50.7022, "lng": -119.2722},
    {"city": "Colwood", "province": "BC", "pop": 18961, "lat": 48.4236, "lng": -123.4958},
    {"city": "Sooke", "province": "BC", "pop": 14296, "lat": 48.3739, "lng": -123.7356},
    {"city": "Parksville", "province": "BC", "pop": 13642, "lat": 49.3150, "lng": -124.3150},
    {"city": "Duncan", "province": "BC", "pop": 5079, "lat": 48.7787, "lng": -123.7079},
    {"city": "Cranbrook", "province": "BC", "pop": 21286, "lat": 49.5097, "lng": -115.7686},
    {"city": "Fort St. John", "province": "BC", "pop": 21155, "lat": 56.2465, "lng": -120.8476},
    {"city": "Powell River", "province": "BC", "pop": 13674, "lat": 49.8353, "lng": -124.5247},
    {"city": "Quesnel", "province": "BC", "pop": 10487, "lat": 52.9784, "lng": -122.4927},
    {"city": "Williams Lake", "province": "BC", "pop": 11488, "lat": 52.1294, "lng": -122.1383},
    {"city": "Terrace", "province": "BC", "pop": 11643, "lat": 54.5164, "lng": -128.6031},
    {"city": "Kitimat", "province": "BC", "pop": 8099, "lat": 54.0536, "lng": -128.6536},
    {"city": "Prince Rupert", "province": "BC", "pop": 12220, "lat": 54.3122, "lng": -130.3271},
    {"city": "Dawson Creek", "province": "BC", "pop": 12978, "lat": 55.7596, "lng": -120.2353},
    {"city": "Nelson", "province": "BC", "pop": 11220, "lat": 49.4928, "lng": -117.2948},
    {"city": "Castlegar", "province": "BC", "pop": 8352, "lat": 49.3263, "lng": -117.6593},
    {"city": "Trail", "province": "BC", "pop": 7709, "lat": 49.0956, "lng": -117.7117},
    {"city": "Revelstoke", "province": "BC", "pop": 8275, "lat": 50.9981, "lng": -118.1957},
    {"city": "Fernie", "province": "BC", "pop": 5984, "lat": 49.5044, "lng": -115.0628},
    {"city": "Kimberley", "province": "BC", "pop": 7425, "lat": 49.6697, "lng": -115.9772},
    {"city": "Golden", "province": "BC", "pop": 4281, "lat": 51.2981, "lng": -116.9614},
    {"city": "Invermere", "province": "BC", "pop": 3600, "lat": 50.5083, "lng": -116.0319},
    {"city": "Merritt", "province": "BC", "pop": 7051, "lat": 50.1117, "lng": -120.7933},
    {"city": "Summerland", "province": "BC", "pop": 12603, "lat": 49.6008, "lng": -119.6758},
    {"city": "Oliver", "province": "BC", "pop": 5238, "lat": 49.1828, "lng": -119.5497},
    {"city": "Osoyoos", "province": "BC", "pop": 5632, "lat": 49.0306, "lng": -119.4681},
    {"city": "Armstrong", "province": "BC", "pop": 5145, "lat": 50.4483, "lng": -119.1972},
    {"city": "Enderby", "province": "BC", "pop": 2964, "lat": 50.5503, "lng": -119.1392},
    {"city": "Lake Country", "province": "BC", "pop": 15817, "lat": 50.0500, "lng": -119.4000},
    {"city": "Peachland", "province": "BC", "pop": 5828, "lat": 49.7700, "lng": -119.7275},
    {"city": "Sicamous", "province": "BC", "pop": 2759, "lat": 50.8369, "lng": -118.9764},
    {"city": "Chase", "province": "BC", "pop": 2495, "lat": 50.8192, "lng": -119.6850},
    {"city": "Smithers", "province": "BC", "pop": 5401, "lat": 54.7806, "lng": -127.1742},
    {"city": "Houston", "province": "BC", "pop": 2993, "lat": 54.3969, "lng": -126.6422},
    {"city": "Burns Lake", "province": "BC", "pop": 1779, "lat": 54.2322, "lng": -125.7608},
    {"city": "Vanderhoof", "province": "BC", "pop": 4439, "lat": 54.0167, "lng": -124.0000},
    {"city": "Fort Nelson", "province": "BC", "pop": 3366, "lat": 58.8053, "lng": -122.6969},
    {"city": "Comox", "province": "BC", "pop": 14828, "lat": 49.6736, "lng": -124.9025},
    {"city": "Cumberland", "province": "BC", "pop": 4240, "lat": 49.6183, "lng": -125.0278},
    {"city": "Qualicum Beach", "province": "BC", "pop": 9061, "lat": 49.3472, "lng": -124.4381},
    {"city": "Port Alberni", "province": "BC", "pop": 18465, "lat": 49.2339, "lng": -124.8050},
    {"city": "Ucluelet", "province": "BC", "pop": 1717, "lat": 48.9425, "lng": -125.5461},
    {"city": "Tofino", "province": "BC", "pop": 2304, "lat": 49.1528, "lng": -125.9067},
    {"city": "Ladysmith", "province": "BC", "pop": 9186, "lat": 48.9975, "lng": -123.8183},
    {"city": "Lake Cowichan", "province": "BC", "pop": 3224, "lat": 48.8247, "lng": -124.0542},
    {"city": "Chemainus", "province": "BC", "pop": 3100, "lat": 48.9256, "lng": -123.7147},
    {"city": "Sidney", "province": "BC", "pop": 12075, "lat": 48.6506, "lng": -123.3989},
    {"city": "Central Saanich", "province": "BC", "pop": 17385, "lat": 48.5139, "lng": -123.3847},
    {"city": "North Saanich", "province": "BC", "pop": 12085, "lat": 48.6147, "lng": -123.4192},
    {"city": "Oak Bay", "province": "BC", "pop": 17990, "lat": 48.4264, "lng": -123.3175},
    {"city": "Esquimalt", "province": "BC", "pop": 17533, "lat": 48.4321, "lng": -123.4141},
    {"city": "View Royal", "province": "BC", "pop": 11575, "lat": 48.4514, "lng": -123.4317},
    {"city": "Highlands", "province": "BC", "pop": 2480, "lat": 48.4869, "lng": -123.4972},
    {"city": "Metchosin", "province": "BC", "pop": 5028, "lat": 48.3886, "lng": -123.5369},
    {"city": "Sechelt", "province": "BC", "pop": 11089, "lat": 49.4742, "lng": -123.7544},
    {"city": "Gibsons", "province": "BC", "pop": 4758, "lat": 49.4031, "lng": -123.5056},
    {"city": "Whistler", "province": "BC", "pop": 13982, "lat": 50.1163, "lng": -122.9574},
    {"city": "Pemberton", "province": "BC", "pop": 2574, "lat": 50.3178, "lng": -122.8022},
    {"city": "Lillooet", "province": "BC", "pop": 2275, "lat": 50.6867, "lng": -121.9414},
    {"city": "Hope", "province": "BC", "pop": 6181, "lat": 49.3858, "lng": -121.4419},
    {"city": "Harrison Hot Springs", "province": "BC", "pop": 1468, "lat": 49.3003, "lng": -121.7850},
    {"city": "Agassiz", "province": "BC", "pop": 5000, "lat": 49.2381, "lng": -121.7614},
    {"city": "100 Mile House", "province": "BC", "pop": 1980, "lat": 51.6425, "lng": -121.2972},
    {"city": "Clinton", "province": "BC", "pop": 636, "lat": 51.0897, "lng": -121.5839},
    {"city": "Ashcroft", "province": "BC", "pop": 1471, "lat": 50.7200, "lng": -121.2814},
    {"city": "Logan Lake", "province": "BC", "pop": 1993, "lat": 50.4881, "lng": -120.8078},
    {"city": "Clearwater", "province": "BC", "pop": 2324, "lat": 51.6506, "lng": -120.0356},
    {"city": "Barriere", "province": "BC", "pop": 1773, "lat": 51.1822, "lng": -120.1231},
    {"city": "Sun Peaks", "province": "BC", "pop": 616, "lat": 50.8833, "lng": -119.9000},
    {"city": "Valemount", "province": "BC", "pop": 1021, "lat": 52.8308, "lng": -119.2644},
    {"city": "McBride", "province": "BC", "pop": 700, "lat": 53.2983, "lng": -120.1653},
    {"city": "Nakusp", "province": "BC", "pop": 1605, "lat": 50.2400, "lng": -117.8008},
    {"city": "New Denver", "province": "BC", "pop": 473, "lat": 49.9933, "lng": -117.3717},
    {"city": "Kaslo", "province": "BC", "pop": 1049, "lat": 49.9139, "lng": -116.9128},
    {"city": "Slocan", "province": "BC", "pop": 296, "lat": 49.7650, "lng": -117.4672},
    {"city": "Rossland", "province": "BC", "pop": 4073, "lat": 49.0792, "lng": -117.8019},
    {"city": "Fruitvale", "province": "BC", "pop": 2058, "lat": 49.1158, "lng": -117.5547},
    {"city": "Montrose", "province": "BC", "pop": 1053, "lat": 49.0972, "lng": -117.6158},
    {"city": "Warfield", "province": "BC", "pop": 1754, "lat": 49.1067, "lng": -117.7233},
    {"city": "Creston", "province": "BC", "pop": 5585, "lat": 49.0953, "lng": -116.5133},
    {"city": "Sparwood", "province": "BC", "pop": 3785, "lat": 49.7325, "lng": -114.8822},
    {"city": "Elkford", "province": "BC", "pop": 2523, "lat": 50.0228, "lng": -114.9208},
    {"city": "Grand Forks", "province": "BC", "pop": 4049, "lat": 49.0306, "lng": -118.4403},
    {"city": "Greenwood", "province": "BC", "pop": 665, "lat": 49.0919, "lng": -118.6789},
    {"city": "Midway", "province": "BC", "pop": 700, "lat": 49.0008, "lng": -118.7700},
    {"city": "Princeton", "province": "BC", "pop": 2828, "lat": 49.4589, "lng": -120.5111},
    {"city": "Keremeos", "province": "BC", "pop": 1353, "lat": 49.2028, "lng": -119.8289},
    {"city": "Cawston", "province": "BC", "pop": 900, "lat": 49.1667, "lng": -119.7500},
    {"city": "Pitt Meadows", "province": "BC", "pop": 19146, "lat": 49.2211, "lng": -122.6894},
    {"city": "Anmore", "province": "BC", "pop": 2350, "lat": 49.3156, "lng": -122.8533},
    {"city": "Belcarra", "province": "BC", "pop": 645, "lat": 49.3200, "lng": -122.9256},
    {"city": "Lions Bay", "province": "BC", "pop": 1390, "lat": 49.4544, "lng": -123.2375},
    {"city": "Bowen Island", "province": "BC", "pop": 4256, "lat": 49.3833, "lng": -123.3333},
    {"city": "Masset", "province": "BC", "pop": 893, "lat": 54.0167, "lng": -132.1500},
    {"city": "Queen Charlotte", "province": "BC", "pop": 857, "lat": 53.2519, "lng": -132.0733},
    {"city": "Stewart", "province": "BC", "pop": 401, "lat": 55.9364, "lng": -129.9903},
    {"city": "Mackenzie", "province": "BC", "pop": 3484, "lat": 55.3381, "lng": -123.0972},
    {"city": "Tumbler Ridge", "province": "BC", "pop": 2005, "lat": 55.1297, "lng": -120.9928},
    {"city": "Chetwynd", "province": "BC", "pop": 2503, "lat": 55.7000, "lng": -121.6333},
    {"city": "Hudson's Hope", "province": "BC", "pop": 964, "lat": 56.0314, "lng": -121.9067},
    {"city": "Taylor", "province": "BC", "pop": 1469, "lat": 56.1544, "lng": -120.6867},
    {"city": "Pouce Coupe", "province": "BC", "pop": 738, "lat": 55.7167, "lng": -120.1333},
    {"city": "New Hazelton", "province": "BC", "pop": 580, "lat": 55.2483, "lng": -127.5861},
    {"city": "Hazelton", "province": "BC", "pop": 253, "lat": 55.2500, "lng": -127.6667},
    {"city": "Granisle", "province": "BC", "pop": 303, "lat": 54.3833, "lng": -126.2333},
    {"city": "Fraser Lake", "province": "BC", "pop": 1012, "lat": 54.0500, "lng": -124.8500},
    {"city": "Fort St. James", "province": "BC", "pop": 1598, "lat": 54.4333, "lng": -124.2500},
    {"city": "Joliette", "province": "QC", "pop": 21457, "lat": 46.0167, "lng": -73.4333},
    {"city": "Alma", "province": "QC", "pop": 31917, "lat": 48.5500, "lng": -71.6500},
    {"city": "Rimouski", "province": "QC", "pop": 49613, "lat": 48.4500, "lng": -68.5333},
    {"city": "Chicoutimi", "province": "QC", "pop": 69004, "lat": 48.4333, "lng": -71.0667},
    {"city": "Baie-Comeau", "province": "QC", "pop": 21536, "lat": 49.2167, "lng": -68.1500},
    {"city": "Sept-Iles", "province": "QC", "pop": 28534, "lat": 50.2167, "lng": -66.3833},
    {"city": "Rouyn-Noranda", "province": "QC", "pop": 43630, "lat": 48.2333, "lng": -79.0167},
    {"city": "Val-d'Or", "province": "QC", "pop": 33871, "lat": 48.1000, "lng": -77.7833},
    {"city": "Amos", "province": "QC", "pop": 12823, "lat": 48.5667, "lng": -78.1167},
    {"city": "Chibougamau", "province": "QC", "pop": 7137, "lat": 49.9167, "lng": -74.3667},
    {"city": "La Tuque", "province": "QC", "pop": 10463, "lat": 47.4333, "lng": -72.7833},
    {"city": "Riviere-du-Loup", "province": "QC", "pop": 19447, "lat": 47.8333, "lng": -69.5333},
    {"city": "Matane", "province": "QC", "pop": 14742, "lat": 48.8500, "lng": -67.5333},
    {"city": "Gaspe", "province": "QC", "pop": 14568, "lat": 48.8333, "lng": -64.4833},
    {"city": "Amqui", "province": "QC", "pop": 6332, "lat": 48.4667, "lng": -67.4333},
    {"city": "Carleton-sur-Mer", "province": "QC", "pop": 4073, "lat": 48.1000, "lng": -66.1333},
    {"city": "New Carlisle", "province": "QC", "pop": 1376, "lat": 48.0167, "lng": -65.3333},
    {"city": "Bonaventure", "province": "QC", "pop": 2616, "lat": 48.0500, "lng": -65.4833},
    {"city": "Perce", "province": "QC", "pop": 3259, "lat": 48.5167, "lng": -64.2167},
    {"city": "Chandler", "province": "QC", "pop": 7701, "lat": 48.3500, "lng": -64.6833},
    {"city": "Mont-Joli", "province": "QC", "pop": 6568, "lat": 48.5833, "lng": -68.1833},
    {"city": "Cabano", "province": "QC", "pop": 2993, "lat": 47.6833, "lng": -68.8833},
    {"city": "Edmundston", "province": "QC", "pop": 2000, "lat": 47.3667, "lng": -68.3333},
    {"city": "Montmagny", "province": "QC", "pop": 11491, "lat": 46.9833, "lng": -70.5500},
    {"city": "Sainte-Marie", "province": "QC", "pop": 13596, "lat": 46.4333, "lng": -71.0333},
    {"city": "Beauceville", "province": "QC", "pop": 6508, "lat": 46.2167, "lng": -70.7833},
    {"city": "Lac-Megantic", "province": "QC", "pop": 5932, "lat": 45.5833, "lng": -70.8833},
    {"city": "Thetford Mines", "province": "QC", "pop": 25709, "lat": 46.1000, "lng": -71.3000},
    {"city": "Asbestos", "province": "QC", "pop": 7096, "lat": 45.7667, "lng": -71.9333},
    {"city": "Coaticook", "province": "QC", "pop": 9017, "lat": 45.1333, "lng": -71.8000},
    {"city": "Magog", "province": "QC", "pop": 27647, "lat": 45.2667, "lng": -72.1500},
    {"city": "Cowansville", "province": "QC", "pop": 13656, "lat": 45.2000, "lng": -72.7500},
    {"city": "Bromont", "province": "QC", "pop": 10007, "lat": 45.3167, "lng": -72.6500},
    {"city": "Farnham", "province": "QC", "pop": 9477, "lat": 45.2833, "lng": -72.9833},
    {"city": "Bedford", "province": "QC", "pop": 2679, "lat": 45.1167, "lng": -72.9833},
    {"city": "Sorel-Tracy", "province": "QC", "pop": 35715, "lat": 46.0333, "lng": -73.1167},
    {"city": "Nicolet", "province": "QC", "pop": 8058, "lat": 46.2167, "lng": -72.6167},
    {"city": "Becancour", "province": "QC", "pop": 13031, "lat": 46.3333, "lng": -72.4333},
    {"city": "Plessisville", "province": "QC", "pop": 6688, "lat": 46.2167, "lng": -71.7667},
    {"city": "Warwick", "province": "QC", "pop": 4806, "lat": 45.9500, "lng": -71.9833},
    {"city": "Princeville", "province": "QC", "pop": 5695, "lat": 46.1667, "lng": -71.8833},
    {"city": "Louiseville", "province": "QC", "pop": 7433, "lat": 46.2500, "lng": -72.9500},
    {"city": "Grand-Mere", "province": "QC", "pop": 14223, "lat": 46.6167, "lng": -72.7833},
    {"city": "La Sarre", "province": "QC", "pop": 7719, "lat": 48.8000, "lng": -79.2000},
    {"city": "Ville-Marie", "province": "QC", "pop": 2668, "lat": 47.3333, "lng": -79.4333},
    {"city": "Senneterre", "province": "QC", "pop": 2866, "lat": 48.3833, "lng": -77.2333},
    {"city": "Matagami", "province": "QC", "pop": 1423, "lat": 49.7500, "lng": -77.6333},
    {"city": "Lebel-sur-Quevillon", "province": "QC", "pop": 2187, "lat": 49.0500, "lng": -77.0167},
    {"city": "Fermont", "province": "QC", "pop": 2474, "lat": 52.7833, "lng": -67.0833},
    {"city": "Schefferville", "province": "QC", "pop": 213, "lat": 54.8000, "lng": -66.8167},
    {"city": "Kuujjuaq", "province": "QC", "pop": 2754, "lat": 58.1000, "lng": -68.4167},
    {"city": "Puvirnituq", "province": "QC", "pop": 1779, "lat": 60.0333, "lng": -77.2833},
    {"city": "Salluit", "province": "QC", "pop": 1483, "lat": 62.2000, "lng": -75.6333},
    {"city": "Inukjuak", "province": "QC", "pop": 1757, "lat": 58.4500, "lng": -78.1000},
    {"city": "Kuujjuarapik", "province": "QC", "pop": 672, "lat": 55.2833, "lng": -77.7500},
    {"city": "Mascouche", "province": "QC", "pop": 50543, "lat": 45.7500, "lng": -73.6000},
    {"city": "L'Assomption", "province": "QC", "pop": 22870, "lat": 45.8333, "lng": -73.4167},
    {"city": "Varennes", "province": "QC", "pop": 22084, "lat": 45.6833, "lng": -73.4333},
    {"city": "Sainte-Julie", "province": "QC", "pop": 33282, "lat": 45.5833, "lng": -73.3333},
    {"city": "Chambly", "province": "QC", "pop": 30234, "lat": 45.4500, "lng": -73.2833},
    {"city": "Saint-Bruno-de-Montarville", "province": "QC", "pop": 27453, "lat": 45.5333, "lng": -73.3500},
    {"city": "Sainte-Therese", "province": "QC", "pop": 27280, "lat": 45.6333, "lng": -73.8500},
    {"city": "Boisbriand", "province": "QC", "pop": 27434, "lat": 45.6167, "lng": -73.8333},
    {"city": "Rosemere", "province": "QC", "pop": 14775, "lat": 45.6333, "lng": -73.8000},
    {"city": "Lorraine", "province": "QC", "pop": 9352, "lat": 45.6833, "lng": -73.7833},
    {"city": "Bois-des-Filion", "province": "QC", "pop": 10063, "lat": 45.6667, "lng": -73.7500},
    {"city": "Sainte-Anne-des-Plaines", "province": "QC", "pop": 16455, "lat": 45.7500, "lng": -73.8167},
    {"city": "Mirabel", "province": "QC", "pop": 59076, "lat": 45.6500, "lng": -74.0833},
    {"city": "Saint-Eustache", "province": "QC", "pop": 46845, "lat": 45.5667, "lng": -73.9000},
    {"city": "Deux-Montagnes", "province": "QC", "pop": 18180, "lat": 45.5333, "lng": -73.9000},
    {"city": "Sainte-Marthe-sur-le-Lac", "province": "QC", "pop": 19754, "lat": 45.5333, "lng": -73.9333},
    {"city": "Saint-Joseph-du-Lac", "province": "QC", "pop": 6954, "lat": 45.5333, "lng": -73.9833},
    {"city": "Oka", "province": "QC", "pop": 4001, "lat": 45.4667, "lng": -74.0833},
    {"city": "Pointe-Calumet", "province": "QC", "pop": 6952, "lat": 45.5000, "lng": -73.9667},
    {"city": "Saint-Placide", "province": "QC", "pop": 1748, "lat": 45.5333, "lng": -74.2167},
    {"city": "Hudson", "province": "QC", "pop": 5404, "lat": 45.4500, "lng": -74.1500},
    {"city": "Rigaud", "province": "QC", "pop": 7774, "lat": 45.4833, "lng": -74.3000},
    {"city": "Vaudreuil-Dorion", "province": "QC", "pop": 41350, "lat": 45.4000, "lng": -74.0333},
    {"city": "L'Ile-Perrot", "province": "QC", "pop": 10756, "lat": 45.3833, "lng": -73.9500},
    {"city": "Pincourt", "province": "QC", "pop": 14558, "lat": 45.3833, "lng": -73.9833},
    {"city": "Notre-Dame-de-l'Ile-Perrot", "province": "QC", "pop": 11119, "lat": 45.3667, "lng": -73.9333},
    {"city": "Sainte-Anne-de-Bellevue", "province": "QC", "pop": 5204, "lat": 45.4000, "lng": -73.9500},
    {"city": "Senneville", "province": "QC", "pop": 920, "lat": 45.4333, "lng": -73.9667},
    {"city": "Baie-d'Urfe", "province": "QC", "pop": 3850, "lat": 45.4167, "lng": -73.9167},
    {"city": "Beaconsfield", "province": "QC", "pop": 19505, "lat": 45.4333, "lng": -73.8667},
    {"city": "Kirkland", "province": "QC", "pop": 21253, "lat": 45.4500, "lng": -73.8667},
    {"city": "Pointe-Claire", "province": "QC", "pop": 31380, "lat": 45.4500, "lng": -73.8167},
    {"city": "Dorval", "province": "QC", "pop": 19503, "lat": 45.4500, "lng": -73.7500},
    {"city": "Dollard-des-Ormeaux", "province": "QC", "pop": 49637, "lat": 45.4833, "lng": -73.8167},
    {"city": "Pierrefonds-Roxboro", "province": "QC", "pop": 69297, "lat": 45.4833, "lng": -73.8333},
    {"city": "Cote-Saint-Luc", "province": "QC", "pop": 33381, "lat": 45.4667, "lng": -73.6667},
    {"city": "Hampstead", "province": "QC", "pop": 7236, "lat": 45.4833, "lng": -73.6667},
    {"city": "Montreal-West", "province": "QC", "pop": 5201, "lat": 45.4500, "lng": -73.6500},
    {"city": "Westmount", "province": "QC", "pop": 21006, "lat": 45.4833, "lng": -73.6000},
    {"city": "Mount Royal", "province": "QC", "pop": 21439, "lat": 45.5167, "lng": -73.6500},
    {"city": "Outremont", "province": "QC", "pop": 23566, "lat": 45.5167, "lng": -73.6167},
    {"city": "Saint-Lambert", "province": "QC", "pop": 21861, "lat": 45.5000, "lng": -73.5000},
    {"city": "Boucherville", "province": "QC", "pop": 43420, "lat": 45.5833, "lng": -73.4333},
    {"city": "Sainte-Catherine", "province": "QC", "pop": 17452, "lat": 45.4000, "lng": -73.5833},
    {"city": "Saint-Constant", "province": "QC", "pop": 29078, "lat": 45.3667, "lng": -73.5667},
    {"city": "Delson", "province": "QC", "pop": 8278, "lat": 45.3667, "lng": -73.5500},
    {"city": "La Prairie", "province": "QC", "pop": 26873, "lat": 45.4167, "lng": -73.5000},
    {"city": "Candiac", "province": "QC", "pop": 24157, "lat": 45.3833, "lng": -73.5167},
    {"city": "Saint-Philippe", "province": "QC", "pop": 7914, "lat": 45.3500, "lng": -73.4833},
    {"city": "Chateauguay", "province": "QC", "pop": 50227, "lat": 45.3833, "lng": -73.7500},
    {"city": "Mercier", "province": "QC", "pop": 14192, "lat": 45.3167, "lng": -73.7500},
    {"city": "Saint-Isidore", "province": "QC", "pop": 2989, "lat": 45.3000, "lng": -73.6833},
    {"city": "Beauharnois", "province": "QC", "pop": 14282, "lat": 45.3167, "lng": -73.8667},
    {"city": "Salaberry-de-Valleyfield", "province": "QC", "pop": 42410, "lat": 45.2500, "lng": -74.1333},
    {"city": "Coteau-du-Lac", "province": "QC", "pop": 7568, "lat": 45.3000, "lng": -74.1833},
    {"city": "Les Cedres", "province": "QC", "pop": 6978, "lat": 45.3167, "lng": -74.0500},
    {"city": "Saint-Lazare", "province": "QC", "pop": 21041, "lat": 45.4000, "lng": -74.1333},
    {"city": "Les Coteaux", "province": "QC", "pop": 5029, "lat": 45.2833, "lng": -74.2333},
    {"city": "Saint-Polycarpe", "province": "QC", "pop": 2167, "lat": 45.3000, "lng": -74.3000},
    {"city": "Huntingdon", "province": "QC", "pop": 2582, "lat": 45.0833, "lng": -74.1667},
    {"city": "Ormstown", "province": "QC", "pop": 3863, "lat": 45.1333, "lng": -73.9833},
    {"city": "Amherst", "province": "NS", "pop": 9413, "lat": 45.8167, "lng": -64.2167},
    {"city": "Antigonish", "province": "NS", "pop": 4364, "lat": 45.6167, "lng": -61.9833},
    {"city": "Dartmouth", "province": "NS", "pop": 71167, "lat": 44.6667, "lng": -63.5667},
    {"city": "Glace Bay", "province": "NS", "pop": 16904, "lat": 46.1978, "lng": -59.9569},
    {"city": "Wolfville", "province": "NS", "pop": 4680, "lat": 45.0833, "lng": -64.3667},
    {"city": "Digby", "province": "NS", "pop": 2060, "lat": 44.6167, "lng": -65.7667},
    {"city": "Liverpool", "province": "NS", "pop": 2653, "lat": 44.0333, "lng": -64.7167},
    {"city": "Shelburne", "province": "NS", "pop": 1638, "lat": 43.7667, "lng": -65.3167},
    {"city": "Lunenburg", "province": "NS", "pop": 2263, "lat": 44.3667, "lng": -64.3167},
    {"city": "Mahone Bay", "province": "NS", "pop": 943, "lat": 44.4500, "lng": -64.3833},
    {"city": "Chester", "province": "NS", "pop": 10310, "lat": 44.5333, "lng": -64.2333},
    {"city": "Annapolis Royal", "province": "NS", "pop": 444, "lat": 44.7500, "lng": -65.5167},
    {"city": "Middleton", "province": "NS", "pop": 1868, "lat": 44.9500, "lng": -65.0667},
    {"city": "Berwick", "province": "NS", "pop": 2454, "lat": 45.0500, "lng": -64.7333},
    {"city": "Windsor", "province": "NS", "pop": 3785, "lat": 44.9833, "lng": -64.1333},
    {"city": "Parrsboro", "province": "NS", "pop": 1305, "lat": 45.4000, "lng": -64.3333},
    {"city": "Springhill", "province": "NS", "pop": 5028, "lat": 45.6500, "lng": -64.0500},
    {"city": "Oxford", "province": "NS", "pop": 1126, "lat": 45.7333, "lng": -63.8667},
    {"city": "Pugwash", "province": "NS", "pop": 728, "lat": 45.8500, "lng": -63.6667},
    {"city": "Tatamagouche", "province": "NS", "pop": 759, "lat": 45.7167, "lng": -63.2833},
    {"city": "Pictou", "province": "NS", "pop": 3186, "lat": 45.6833, "lng": -62.7167},
    {"city": "Stellarton", "province": "NS", "pop": 4208, "lat": 45.5667, "lng": -62.6667},
    {"city": "Westville", "province": "NS", "pop": 3655, "lat": 45.5500, "lng": -62.7000},
    {"city": "Canso", "province": "NS", "pop": 768, "lat": 45.3333, "lng": -61.0000},
    {"city": "Guysborough", "province": "NS", "pop": 395, "lat": 45.3833, "lng": -61.5000},
    {"city": "Sheet Harbour", "province": "NS", "pop": 660, "lat": 44.9167, "lng": -62.5333},
    {"city": "Musquodoboit Harbour", "province": "NS", "pop": 904, "lat": 44.7667, "lng": -63.1167},
    {"city": "Port Hawkesbury", "province": "NS", "pop": 3214, "lat": 45.6167, "lng": -61.3500},
    {"city": "Arichat", "province": "NS", "pop": 504, "lat": 45.5000, "lng": -61.0333},
    {"city": "Cheticamp", "province": "NS", "pop": 2900, "lat": 46.6333, "lng": -61.0167},
    {"city": "Baddeck", "province": "NS", "pop": 799, "lat": 46.1000, "lng": -60.7500},
    {"city": "Inverness", "province": "NS", "pop": 1275, "lat": 46.2167, "lng": -61.1000},
    {"city": "Ingonish", "province": "NS", "pop": 1119, "lat": 46.6667, "lng": -60.4000},
    {"city": "North Sydney", "province": "NS", "pop": 6995, "lat": 46.2167, "lng": -60.2500},
    {"city": "Sydney Mines", "province": "NS", "pop": 6919, "lat": 46.2333, "lng": -60.2167},
    {"city": "Louisbourg", "province": "NS", "pop": 871, "lat": 45.9167, "lng": -59.9667},
    {"city": "Dominion", "province": "NS", "pop": 1927, "lat": 46.2500, "lng": -59.8833},
    {"city": "New Waterford", "province": "NS", "pop": 6420, "lat": 46.2500, "lng": -60.0667},
    {"city": "Sackville", "province": "NB", "pop": 5331, "lat": 45.9000, "lng": -64.3833},
    {"city": "Dieppe", "province": "NB", "pop": 30914, "lat": 46.0833, "lng": -64.7167},
    {"city": "Riverview", "province": "NB", "pop": 20584, "lat": 46.0667, "lng": -64.8000},
    {"city": "Quispamsis", "province": "NB", "pop": 18245, "lat": 45.4333, "lng": -65.9500},
    {"city": "Rothesay", "province": "NB", "pop": 12063, "lat": 45.3833, "lng": -65.9833},
    {"city": "Grand Falls", "province": "NB", "pop": 5326, "lat": 47.0500, "lng": -67.7500},
    {"city": "Woodstock", "province": "NB", "pop": 5228, "lat": 46.1500, "lng": -67.6000},
    {"city": "Oromocto", "province": "NB", "pop": 9223, "lat": 45.8333, "lng": -66.4667},
    {"city": "Sussex", "province": "NB", "pop": 4282, "lat": 45.7167, "lng": -65.5000},
    {"city": "Hampton", "province": "NB", "pop": 4280, "lat": 45.5333, "lng": -65.8500},
    {"city": "Campbellton", "province": "NB", "pop": 6883, "lat": 48.0000, "lng": -66.6667},
    {"city": "Dalhousie", "province": "NB", "pop": 3126, "lat": 48.0667, "lng": -66.3667},
    {"city": "Caraquet", "province": "NB", "pop": 4169, "lat": 47.7833, "lng": -64.9167},
    {"city": "Shippagan", "province": "NB", "pop": 2536, "lat": 47.7500, "lng": -64.7000},
    {"city": "Tracadie-Sheila", "province": "NB", "pop": 4594, "lat": 47.5167, "lng": -64.9167},
    {"city": "Neguac", "province": "NB", "pop": 1566, "lat": 47.2500, "lng": -65.0500},
    {"city": "Bouctouche", "province": "NB", "pop": 2383, "lat": 46.4667, "lng": -64.7333},
    {"city": "Richibucto", "province": "NB", "pop": 1175, "lat": 46.6833, "lng": -64.8667},
    {"city": "Shediac", "province": "NB", "pop": 6664, "lat": 46.2167, "lng": -64.5500},
    {"city": "Petitcodiac", "province": "NB", "pop": 1429, "lat": 45.9333, "lng": -65.1667},
    {"city": "Hartland", "province": "NB", "pop": 947, "lat": 46.3000, "lng": -67.5333},
    {"city": "Florenceville-Bristol", "province": "NB", "pop": 1556, "lat": 46.4333, "lng": -67.6167},
    {"city": "Perth-Andover", "province": "NB", "pop": 1778, "lat": 46.7500, "lng": -67.7000},
    {"city": "Plaster Rock", "province": "NB", "pop": 1050, "lat": 46.9000, "lng": -67.3833},
    {"city": "St. Stephen", "province": "NB", "pop": 4415, "lat": 45.2000, "lng": -67.2833},
    {"city": "St. Andrews", "province": "NB", "pop": 1786, "lat": 45.0667, "lng": -67.0500},
    {"city": "St. George", "province": "NB", "pop": 1308, "lat": 45.1333, "lng": -66.8333},
    {"city": "Grand Bay-Westfield", "province": "NB", "pop": 5117, "lat": 45.3500, "lng": -66.2500},
    {"city": "Grand Manan", "province": "NB", "pop": 2360, "lat": 44.7167, "lng": -66.8000},
    {"city": "Blacks Harbour", "province": "NB", "pop": 883, "lat": 45.0500, "lng": -66.7833},
    {"city": "Deer Island", "province": "NB", "pop": 921, "lat": 44.9833, "lng": -66.9500},
    {"city": "Campobello Island", "province": "NB", "pop": 925, "lat": 44.8833, "lng": -66.9500},
    {"city": "St. Anthony", "province": "NL", "pop": 2258, "lat": 51.3667, "lng": -55.5833},
    {"city": "Gander", "province": "NL", "pop": 11688, "lat": 48.9569, "lng": -54.6089},
    {"city": "Grand Falls-Windsor", "province": "NL", "pop": 14171, "lat": 48.9333, "lng": -55.6500},
    {"city": "Stephenville", "province": "NL", "pop": 6719, "lat": 48.5500, "lng": -58.5667},
    {"city": "Channel-Port aux Basques", "province": "NL", "pop": 4067, "lat": 47.5667, "lng": -59.1500},
    {"city": "Bay Roberts", "province": "NL", "pop": 6012, "lat": 47.5833, "lng": -53.2667},
    {"city": "Carbonear", "province": "NL", "pop": 4838, "lat": 47.7333, "lng": -53.2167},
    {"city": "Harbour Grace", "province": "NL", "pop": 2995, "lat": 47.7000, "lng": -53.2167},
    {"city": "Clarenville", "province": "NL", "pop": 6291, "lat": 48.1667, "lng": -53.9667},
    {"city": "Bonavista", "province": "NL", "pop": 3280, "lat": 48.6500, "lng": -53.1167},
    {"city": "Twillingate", "province": "NL", "pop": 2196, "lat": 49.6500, "lng": -54.7500},
    {"city": "Lewisporte", "province": "NL", "pop": 3409, "lat": 49.2500, "lng": -55.0500},
    {"city": "Deer Lake", "province": "NL", "pop": 5249, "lat": 49.1667, "lng": -57.4167},
    {"city": "Pasadena", "province": "NL", "pop": 3764, "lat": 49.0167, "lng": -57.6000},
    {"city": "Rocky Harbour", "province": "NL", "pop": 883, "lat": 49.5833, "lng": -57.9167},
    {"city": "Norris Point", "province": "NL", "pop": 706, "lat": 49.4667, "lng": -57.8833},
    {"city": "Burgeo", "province": "NL", "pop": 1226, "lat": 47.6167, "lng": -57.6167},
    {"city": "Ramea", "province": "NL", "pop": 425, "lat": 47.5167, "lng": -57.3833},
    {"city": "Harbour Breton", "province": "NL", "pop": 1628, "lat": 47.4833, "lng": -55.8000},
    {"city": "Fortune", "province": "NL", "pop": 1363, "lat": 47.0667, "lng": -55.8167},
    {"city": "Grand Bank", "province": "NL", "pop": 2262, "lat": 47.1000, "lng": -55.7667},
    {"city": "Marystown", "province": "NL", "pop": 5316, "lat": 47.1667, "lng": -55.1500},
    {"city": "Burin", "province": "NL", "pop": 2117, "lat": 47.0333, "lng": -55.1667},
    {"city": "St. Lawrence", "province": "NL", "pop": 1244, "lat": 46.9167, "lng": -55.3833},
    {"city": "Placentia", "province": "NL", "pop": 3496, "lat": 47.2500, "lng": -53.9667},
    {"city": "Ferryland", "province": "NL", "pop": 465, "lat": 47.0167, "lng": -52.8667},
    {"city": "Trepassey", "province": "NL", "pop": 558, "lat": 46.7333, "lng": -53.3667},
    {"city": "St. Mary's", "province": "NL", "pop": 387, "lat": 46.9167, "lng": -53.5500},
    {"city": "Holyrood", "province": "NL", "pop": 2463, "lat": 47.3833, "lng": -53.1333},
    {"city": "Torbay", "province": "NL", "pop": 8739, "lat": 47.6667, "lng": -52.7333},
    {"city": "Portugal Cove-St. Philip's", "province": "NL", "pop": 8147, "lat": 47.6333, "lng": -52.8500},
    {"city": "CBS", "province": "NL", "pop": 27168, "lat": 47.5167, "lng": -52.9833},
    {"city": "Spaniard's Bay", "province": "NL", "pop": 2797, "lat": 47.6167, "lng": -53.3333},
    {"city": "Victoria", "province": "NL", "pop": 1938, "lat": 47.7500, "lng": -53.2167},
    {"city": "Old Perlican", "province": "NL", "pop": 573, "lat": 47.9000, "lng": -53.2667},
    {"city": "Trinity", "province": "NL", "pop": 169, "lat": 48.3667, "lng": -53.3500},
    {"city": "Heart's Content", "province": "NL", "pop": 381, "lat": 47.8667, "lng": -53.3667},
    {"city": "Heart's Delight-Islington", "province": "NL", "pop": 735, "lat": 47.7833, "lng": -53.4333},
    {"city": "Whitbourne", "province": "NL", "pop": 859, "lat": 47.4167, "lng": -53.5500},
    {"city": "Dildo", "province": "NL", "pop": 450, "lat": 47.5667, "lng": -53.5500},
    {"city": "Markland", "province": "NL", "pop": 330, "lat": 47.4500, "lng": -53.6500},
    {"city": "Centreville-Wareham-Trinity", "province": "NL", "pop": 1086, "lat": 49.0833, "lng": -54.0000},
    {"city": "Summerford", "province": "NL", "pop": 926, "lat": 49.4500, "lng": -54.8000},
    {"city": "Fogo Island", "province": "NL", "pop": 2244, "lat": 49.7167, "lng": -54.2667},
    {"city": "Carmanville", "province": "NL", "pop": 708, "lat": 49.4000, "lng": -54.2833},
    {"city": "Musgrave Harbour", "province": "NL", "pop": 1005, "lat": 49.4500, "lng": -53.9667},
    {"city": "Gambo", "province": "NL", "pop": 1801, "lat": 48.7833, "lng": -54.2167},
    {"city": "Glovertown", "province": "NL", "pop": 2053, "lat": 48.6667, "lng": -54.0500},
    {"city": "Eastport", "province": "NL", "pop": 491, "lat": 48.6333, "lng": -53.8167},
    {"city": "Port Blandford", "province": "NL", "pop": 476, "lat": 48.4333, "lng": -54.1833},
    {"city": "Terra Nova", "province": "NL", "pop": 93, "lat": 48.5500, "lng": -54.0833},
    {"city": "Bishop's Falls", "province": "NL", "pop": 3101, "lat": 49.0167, "lng": -55.5333},
    {"city": "Botwood", "province": "NL", "pop": 2788, "lat": 49.1500, "lng": -55.3500},
    {"city": "Northern Arm", "province": "NL", "pop": 389, "lat": 49.2000, "lng": -55.2500},
    {"city": "Point Leamington", "province": "NL", "pop": 617, "lat": 49.2667, "lng": -55.1167},
    {"city": "Springdale", "province": "NL", "pop": 2971, "lat": 49.5000, "lng": -56.0667},
    {"city": "King's Point", "province": "NL", "pop": 524, "lat": 49.5833, "lng": -56.1833},
    {"city": "South Brook", "province": "NL", "pop": 538, "lat": 49.4167, "lng": -56.1167},
    {"city": "Roberts Arm", "province": "NL", "pop": 725, "lat": 49.5167, "lng": -55.8000},
    {"city": "Triton", "province": "NL", "pop": 868, "lat": 49.5167, "lng": -55.6333},
    {"city": "Pilley's Island", "province": "NL", "pop": 439, "lat": 49.5167, "lng": -55.7167},
    {"city": "La Scie", "province": "NL", "pop": 868, "lat": 49.9667, "lng": -55.5833},
    {"city": "Baie Verte", "province": "NL", "pop": 1324, "lat": 49.9333, "lng": -56.1833},
    {"city": "Roddickton-Bide Arm", "province": "NL", "pop": 965, "lat": 50.8667, "lng": -56.1333},
    {"city": "Main Brook", "province": "NL", "pop": 261, "lat": 51.1833, "lng": -55.8500},
    {"city": "Raleigh", "province": "NL", "pop": 218, "lat": 51.3000, "lng": -55.7833},
    {"city": "L'Anse aux Meadows", "province": "NL", "pop": 27, "lat": 51.5967, "lng": -55.5333},
    {"city": "Happy Valley-Goose Bay", "province": "NL", "pop": 8109, "lat": 53.3167, "lng": -60.3000},
    {"city": "Labrador City", "province": "NL", "pop": 7220, "lat": 52.9333, "lng": -66.9167},
    {"city": "Wabush", "province": "NL", "pop": 1906, "lat": 52.9333, "lng": -66.8667},
    {"city": "Churchill Falls", "province": "NL", "pop": 690, "lat": 53.5500, "lng": -63.9667},
    {"city": "Nain", "province": "NL", "pop": 1125, "lat": 56.5333, "lng": -61.6833},
    {"city": "Hopedale", "province": "NL", "pop": 556, "lat": 55.4500, "lng": -60.2167},
    {"city": "Makkovik", "province": "NL", "pop": 361, "lat": 55.0833, "lng": -59.1833},
    {"city": "Postville", "province": "NL", "pop": 206, "lat": 54.9167, "lng": -59.7833},
    {"city": "Rigolet", "province": "NL", "pop": 306, "lat": 54.1833, "lng": -58.4333},
    {"city": "Cartwright", "province": "NL", "pop": 516, "lat": 53.7000, "lng": -57.0167},
    {"city": "Mary's Harbour", "province": "NL", "pop": 352, "lat": 52.3000, "lng": -55.8333},
    {"city": "Port Hope Simpson", "province": "NL", "pop": 440, "lat": 52.5333, "lng": -56.2833},
    {"city": "Forteau", "province": "NL", "pop": 448, "lat": 51.4500, "lng": -56.9500},
    {"city": "L'Anse-au-Clair", "province": "NL", "pop": 206, "lat": 51.4333, "lng": -57.0500},
    {"city": "Red Bay", "province": "NL", "pop": 169, "lat": 51.7333, "lng": -56.4333}
  ]
}
